[
  {
    "name_en": "Afghanistan",
    "name_id": "Afganistan",
    "lon": 66.08669017344614,
    "lat": 33.856399243318464,
    "flag": "🇦🇫",
    "pop": "1.4B",
    "budget": "Rp 2633 T",
    "religion": "Katolik",
    "ideology": "Pancasila"
  },
  {
    "name_en": "Angola",
    "name_id": "Angola",
    "lon": 17.502911842047805,
    "lat": -12.291553371095887,
    "flag": "🇦🇴",
    "pop": "19M",
    "budget": "Rp 3494 T",
    "religion": "Katolik",
    "ideology": "Pancasila"
  },
  {
    "name_en": "Albania",
    "name_id": "Albania",
    "lon": 20.032426386052148,
    "lat": 41.14135336776868,
    "flag": "🇦🇱",
    "pop": "118M",
    "budget": "Rp 3733 T",
    "religion": "Sekuler",
    "ideology": "Pancasila"
  },
  {
    "name_en": "United Arab Emirates",
    "name_id": "Uni Emirat Arab",
    "lon": 54.20671462253352,
    "lat": 23.868633515147298,
    "flag": "🇦🇪",
    "pop": "470M",
    "budget": "Rp 2268 T",
    "religion": "Sekuler",
    "ideology": "Demokrasi"
  },
  {
    "name_en": "Argentina",
    "name_id": "Argentina",
    "lon": -65.14954327970175,
    "lat": -35.22017190066764,
    "flag": "🇦🇷",
    "pop": "1.2B",
    "budget": "Rp 3012 T",
    "religion": "Islam",
    "ideology": "Demokrasi"
  },
  {
    "name_en": "Armenia",
    "name_id": "Armenia",
    "lon": 45.000290236452194,
    "lat": 40.21660746331762,
    "flag": "🇦🇲",
    "pop": "1.4B",
    "budget": "Rp 4385 T",
    "religion": "Sekuler",
    "ideology": "Pancasila"
  },
  {
    "name_en": "Antarctica",
    "name_id": "Antarktika",
    "lon": 31.181922566996327,
    "lat": -77.33713476873983,
    "flag": "🇦🇶",
    "pop": "1.4B",
    "budget": "Rp 3874 T",
    "religion": "Islam",
    "ideology": "Pancasila"
  },
  {
    "name_en": "French Southern and Antarctic Lands",
    "name_id": "Wilayah Selatan Prancis",
    "lon": 69.5315804704273,
    "lat": -49.30645491167483,
    "flag": "🇹🇫",
    "pop": "333M",
    "budget": "Rp 547 T",
    "religion": "Katolik",
    "ideology": "Pancasila"
  },
  {
    "name_en": "Australia",
    "name_id": "Australia",
    "lon": 134.37607854962764,
    "lat": -25.56076401553387,
    "flag": "🇦🇺",
    "pop": "276M",
    "budget": "Rp 4368 T",
    "religion": "Sekuler",
    "ideology": "Komunisme"
  },
  {
    "name_en": "Austria",
    "name_id": "Austria",
    "lon": 14.076158737088802,
    "lat": 47.61394873674083,
    "flag": "🇦🇹",
    "pop": "1.4B",
    "budget": "Rp 392 T",
    "religion": "Ortodoks",
    "ideology": "Komunisme"
  },
  {
    "name_en": "Azerbaijan",
    "name_id": "Azerbaijan",
    "lon": 47.68058264560041,
    "lat": 40.2805337362755,
    "flag": "🇦🇿",
    "pop": "1.4B",
    "budget": "Rp 4498 T",
    "religion": "Katolik",
    "ideology": "Teokrasi"
  },
  {
    "name_en": "Burundi",
    "name_id": "Burundi",
    "lon": 29.913901081153096,
    "lat": -3.377391780507067,
    "flag": "🇧🇮",
    "pop": "1.1B",
    "budget": "Rp 4458 T",
    "religion": "Sekuler",
    "ideology": "Pancasila"
  },
  {
    "name_en": "Belgium",
    "name_id": "Belgia",
    "lon": 4.580831170355562,
    "lat": 50.652442788532795,
    "flag": "🇧🇪",
    "pop": "95M",
    "budget": "Rp 3022 T",
    "religion": "Ortodoks",
    "ideology": "Otokrasi"
  },
  {
    "name_en": "Benin",
    "name_id": "Benin",
    "lon": 2.3373776582836743,
    "lat": 9.647430604325605,
    "flag": "🇧🇯",
    "pop": "1.1B",
    "budget": "Rp 3526 T",
    "religion": "Ortodoks",
    "ideology": "Teokrasi"
  },
  {
    "name_en": "Burkina Faso",
    "name_id": "Burkina Faso",
    "lon": -1.7765373932154922,
    "lat": 12.311650411193025,
    "flag": "🇧🇫",
    "pop": "1.0B",
    "budget": "Rp 3948 T",
    "religion": "Hindu",
    "ideology": "Komunisme"
  },
  {
    "name_en": "Bangladesh",
    "name_id": "Bangladesh",
    "lon": 90.26792836633719,
    "lat": 23.839461928066203,
    "flag": "🇧🇩",
    "pop": "1.0B",
    "budget": "Rp 3863 T",
    "religion": "Sekuler",
    "ideology": "Komunisme"
  },
  {
    "name_en": "Bulgaria",
    "name_id": "Bulgaria",
    "lon": 25.195110896460317,
    "lat": 42.753118773003436,
    "flag": "🇧🇬",
    "pop": "1.0B",
    "budget": "Rp 1343 T",
    "religion": "Katolik",
    "ideology": "Demokrasi"
  },
  {
    "name_en": "The Bahamas",
    "name_id": "Bahama",
    "lon": -77.91580479355562,
    "lat": 24.506399672714938,
    "flag": "🇧🇸",
    "pop": "1.3B",
    "budget": "Rp 3258 T",
    "religion": "Islam",
    "ideology": "Sosiolisme"
  },
  {
    "name_en": "Bosnia and Herzegovina",
    "name_id": "Bosnia dan Herzegovina",
    "lon": 17.816883262474423,
    "lat": 44.18076800389087,
    "flag": "🇧🇦",
    "pop": "1.5B",
    "budget": "Rp 368 T",
    "religion": "Islam",
    "ideology": "Demokrasi"
  },
  {
    "name_en": "Belarus",
    "name_id": "Belarus",
    "lon": 27.981354019495736,
    "lat": 53.506344352815105,
    "flag": "🇧🇾",
    "pop": "351M",
    "budget": "Rp 2116 T",
    "religion": "Ortodoks",
    "ideology": "Otokrasi"
  },
  {
    "name_en": "Belize",
    "name_id": "Belize",
    "lon": -88.70342126984764,
    "lat": 17.197089795200295,
    "flag": "🇧🇿",
    "pop": "279M",
    "budget": "Rp 2217 T",
    "religion": "Katolik",
    "ideology": "Demokrasi"
  },
  {
    "name_en": "Bermuda",
    "name_id": "Bermuda",
    "lon": -64.7596428319412,
    "lat": 32.31249269892614,
    "flag": "🇧🇲",
    "pop": "158M",
    "budget": "Rp 2912 T",
    "religion": "Sekuler",
    "ideology": "Komunisme"
  },
  {
    "name_en": "Bolivia",
    "name_id": "Bolivia",
    "lon": -64.64140560988855,
    "lat": -16.728986949758703,
    "flag": "🇧🇴",
    "pop": "449M",
    "budget": "Rp 3216 T",
    "religion": "Kristen",
    "ideology": "Pancasila"
  },
  {
    "name_en": "Brazil",
    "name_id": "Brasil",
    "lon": -53.054339956839804,
    "lat": -10.806773681852466,
    "flag": "🇧🇷",
    "pop": "1.5B",
    "budget": "Rp 3893 T",
    "religion": "Ortodoks",
    "ideology": "Teokrasi"
  },
  {
    "name_en": "Brunei",
    "name_id": "Brunei Darussalam",
    "lon": 114.91510881306823,
    "lat": 4.690250696299329,
    "flag": "🇧🇳",
    "pop": "111M",
    "budget": "Rp 1980 T",
    "religion": "Ortodoks",
    "ideology": "Otokrasi"
  },
  {
    "name_en": "Bhutan",
    "name_id": "Bhutan",
    "lon": 90.47242488617444,
    "lat": 27.42796865030104,
    "flag": "🇧🇹",
    "pop": "138M",
    "budget": "Rp 3892 T",
    "religion": "Ortodoks",
    "ideology": "Komunisme"
  },
  {
    "name_en": "Botswana",
    "name_id": "Botswana",
    "lon": 23.773081475874164,
    "lat": -22.099711410350633,
    "flag": "🇧🇼",
    "pop": "450M",
    "budget": "Rp 3441 T",
    "religion": "Kristen",
    "ideology": "Teokrasi"
  },
  {
    "name_en": "Central African Republic",
    "name_id": "Republik Afrika Tengah",
    "lon": 20.374346983937315,
    "lat": 6.542778839030221,
    "flag": "🇨🇫",
    "pop": "466M",
    "budget": "Rp 317 T",
    "religion": "Hindu",
    "ideology": "Komunisme"
  },
  {
    "name_en": "Canada",
    "name_id": "Kanada",
    "lon": -101.5698221315834,
    "lat": 57.74876881312867,
    "flag": "🇨🇦",
    "pop": "1.2B",
    "budget": "Rp 3715 T",
    "religion": "Hindu",
    "ideology": "Demokrasi"
  },
  {
    "name_en": "Switzerland",
    "name_id": "Swiss",
    "lon": 8.118300753356504,
    "lat": 46.79173778186657,
    "flag": "🇨🇭",
    "pop": "1.3B",
    "budget": "Rp 2111 T",
    "religion": "Islam",
    "ideology": "Demokrasi"
  },
  {
    "name_en": "Chile",
    "name_id": "Cile",
    "lon": -71.67094501844565,
    "lat": -37.34183168298793,
    "flag": "🇨🇱",
    "pop": "218M",
    "budget": "Rp 3181 T",
    "religion": "Katolik",
    "ideology": "Sosiolisme"
  },
  {
    "name_en": "China",
    "name_id": "Tiongkok",
    "lon": 103.86536517143006,
    "lat": 36.60943236225276,
    "flag": "🇨🇳",
    "pop": "1.2B",
    "budget": "Rp 644 T",
    "religion": "Hindu",
    "ideology": "Otokrasi"
  },
  {
    "name_en": "Ivory Coast",
    "name_id": "Pantai Gading",
    "lon": -5.6120436791882335,
    "lat": 7.553755039532438,
    "flag": "🇨🇮",
    "pop": "1.1B",
    "budget": "Rp 507 T",
    "religion": "Katolik",
    "ideology": "Teokrasi"
  },
  {
    "name_en": "Cameroon",
    "name_id": "Kamerun",
    "lon": 12.61155245695357,
    "lat": 5.663098262285095,
    "flag": "🇨🇲",
    "pop": "16M",
    "budget": "Rp 2587 T",
    "religion": "Islam",
    "ideology": "Demokrasi"
  },
  {
    "name_en": "Democratic Republic of the Congo",
    "name_id": "Demokratik Kongo",
    "lon": 23.582955887560274,
    "lat": -2.8502756233323856,
    "flag": "🇨🇩",
    "pop": "372M",
    "budget": "Rp 2988 T",
    "religion": "Ortodoks",
    "ideology": "Komunisme"
  },
  {
    "name_en": "Republic of the Congo",
    "name_id": "Kongo",
    "lon": 15.134461756195181,
    "lat": -0.8378009737534012,
    "flag": "🇨🇬",
    "pop": "335M",
    "budget": "Rp 4704 T",
    "religion": "Ortodoks",
    "ideology": "Pancasila"
  },
  {
    "name_en": "Colombia",
    "name_id": "Kolombia",
    "lon": -73.07773203253659,
    "lat": 3.927213847920398,
    "flag": "🇨🇴",
    "pop": "371M",
    "budget": "Rp 2363 T",
    "religion": "Ortodoks",
    "ideology": "Teokrasi"
  },
  {
    "name_en": "Costa Rica",
    "name_id": "Kosta Rika",
    "lon": -84.17542316107524,
    "lat": 9.965671026983046,
    "flag": "🇨🇷",
    "pop": "447M",
    "budget": "Rp 3530 T",
    "religion": "Ortodoks",
    "ideology": "Otokrasi"
  },
  {
    "name_en": "Cuba",
    "name_id": "Kuba",
    "lon": -78.9606848744809,
    "lat": 21.631751486103937,
    "flag": "🇨🇺",
    "pop": "1.4B",
    "budget": "Rp 4727 T",
    "religion": "Hindu",
    "ideology": "Komunisme"
  },
  {
    "name_en": "Northern Cyprus",
    "name_id": "Siprus Utara",
    "lon": 33.55828628437723,
    "lat": 35.27395776221244,
    "flag": "🏳️",
    "pop": "473M",
    "budget": "Rp 2449 T",
    "religion": "Hindu",
    "ideology": "Teokrasi"
  },
  {
    "name_en": "Cyprus",
    "name_id": "Siprus",
    "lon": 33.03955387093977,
    "lat": 34.90706080017199,
    "flag": "🇨🇾",
    "pop": "1.0B",
    "budget": "Rp 4899 T",
    "religion": "Hindu",
    "ideology": "Demokrasi"
  },
  {
    "name_en": "Czech Republic",
    "name_id": "Ceko",
    "lon": 15.334558261592665,
    "lat": 49.77524526102691,
    "flag": "🇨🇿",
    "pop": "494M",
    "budget": "Rp 1293 T",
    "religion": "Ortodoks",
    "ideology": "Pancasila"
  },
  {
    "name_en": "Germany",
    "name_id": "Jerman",
    "lon": 10.28848506404657,
    "lat": 51.133722711258784,
    "flag": "🇩🇪",
    "pop": "104M",
    "budget": "Rp 4646 T",
    "religion": "Islam",
    "ideology": "Komunisme"
  },
  {
    "name_en": "Djibouti",
    "name_id": "Jibuti",
    "lon": 42.49801969680609,
    "lat": 11.773044433321871,
    "flag": "🇩🇯",
    "pop": "16M",
    "budget": "Rp 4767 T",
    "religion": "Katolik",
    "ideology": "Demokrasi"
  },
  {
    "name_en": "Denmark",
    "name_id": "Denmark",
    "lon": 9.31077804638221,
    "lat": 56.219626257808855,
    "flag": "🇩🇰",
    "pop": "1.2B",
    "budget": "Rp 3597 T",
    "religion": "Katolik",
    "ideology": "Demokrasi"
  },
  {
    "name_en": "Dominican Republic",
    "name_id": "Republik Dominika",
    "lon": -70.4623584650498,
    "lat": 18.88448706027172,
    "flag": "🇩🇴",
    "pop": "387M",
    "budget": "Rp 2260 T",
    "religion": "Islam",
    "ideology": "Sosiolisme"
  },
  {
    "name_en": "Algeria",
    "name_id": "Aljazair",
    "lon": 2.598047814474602,
    "lat": 28.185481292453208,
    "flag": "🇩🇿",
    "pop": "261M",
    "budget": "Rp 2646 T",
    "religion": "Hindu",
    "ideology": "Sosiolisme"
  },
  {
    "name_en": "Ecuador",
    "name_id": "Ekuador",
    "lon": -78.38416672243,
    "lat": -1.4547717410770833,
    "flag": "🇪🇨",
    "pop": "99M",
    "budget": "Rp 3930 T",
    "religion": "Kristen",
    "ideology": "Demokrasi"
  },
  {
    "name_en": "Egypt",
    "name_id": "Mesir",
    "lon": 29.844461516983507,
    "lat": 26.506619997407647,
    "flag": "🇪🇬",
    "pop": "56M",
    "budget": "Rp 1469 T",
    "religion": "Sekuler",
    "ideology": "Teokrasi"
  },
  {
    "name_en": "Eritrea",
    "name_id": "Eritrea",
    "lon": 38.67817733284897,
    "lat": 15.42727561505336,
    "flag": "🇪🇷",
    "pop": "1.4B",
    "budget": "Rp 3324 T",
    "religion": "Katolik",
    "ideology": "Otokrasi"
  },
  {
    "name_en": "Spain",
    "name_id": "Spanyol",
    "lon": -3.6170206759564443,
    "lat": 40.348656154214396,
    "flag": "🇪🇸",
    "pop": "1.4B",
    "budget": "Rp 3047 T",
    "religion": "Islam",
    "ideology": "Otokrasi"
  },
  {
    "name_en": "Estonia",
    "name_id": "Estonia",
    "lon": 25.82472822310874,
    "lat": 58.64369521107791,
    "flag": "🇪🇪",
    "pop": "415M",
    "budget": "Rp 2176 T",
    "religion": "Sekuler",
    "ideology": "Otokrasi"
  },
  {
    "name_en": "Ethiopia",
    "name_id": "Etiopia",
    "lon": 39.55125579592939,
    "lat": 8.653999193325813,
    "flag": "🇪🇹",
    "pop": "367M",
    "budget": "Rp 1995 T",
    "religion": "Kristen",
    "ideology": "Komunisme"
  },
  {
    "name_en": "Finland",
    "name_id": "Finlandia",
    "lon": 26.211764688890284,
    "lat": 64.50409386705037,
    "flag": "🇫🇮",
    "pop": "17M",
    "budget": "Rp 3710 T",
    "religion": "Hindu",
    "ideology": "Pancasila"
  },
  {
    "name_en": "Fiji",
    "name_id": "Fiji",
    "lon": 177.99707018335187,
    "lat": -17.830935892543597,
    "flag": "🇫🇯",
    "pop": "34M",
    "budget": "Rp 417 T",
    "religion": "Islam",
    "ideology": "Komunisme"
  },
  {
    "name_en": "Falkland Islands",
    "name_id": "Kepulauan Falkland",
    "lon": -59.42097279311143,
    "lat": -51.71322176551296,
    "flag": "🇫🇰",
    "pop": "348M",
    "budget": "Rp 385 T",
    "religion": "Kristen",
    "ideology": "Teokrasi"
  },
  {
    "name_en": "France",
    "name_id": "Prancis",
    "lon": 2.3390887346463747,
    "lat": 46.60646331103217,
    "flag": "🇫🇷",
    "pop": "1.3B",
    "budget": "Rp 3888 T",
    "religion": "Katolik",
    "ideology": "Teokrasi"
  },
  {
    "name_en": "Gabon",
    "name_id": "Gabon",
    "lon": 11.687751178626542,
    "lat": -0.6470482175701122,
    "flag": "🇬🇦",
    "pop": "173M",
    "budget": "Rp 3046 T",
    "religion": "Katolik",
    "ideology": "Demokrasi"
  },
  {
    "name_en": "United Kingdom",
    "name_id": "Britania Raya",
    "lon": -2.6579931115256543,
    "lat": 53.88335877899396,
    "flag": "🇬🇧",
    "pop": "470M",
    "budget": "Rp 1362 T",
    "religion": "Katolik",
    "ideology": "Demokrasi"
  },
  {
    "name_en": "Georgia",
    "name_id": "Georgia",
    "lon": 43.48154010544427,
    "lat": 42.16201894135135,
    "flag": "🇬🇪",
    "pop": "462M",
    "budget": "Rp 2166 T",
    "religion": "Ortodoks",
    "ideology": "Otokrasi"
  },
  {
    "name_en": "Ghana",
    "name_id": "Ghana",
    "lon": -1.236968481719099,
    "lat": 7.928651850055786,
    "flag": "🇬🇭",
    "pop": "1.3B",
    "budget": "Rp 3852 T",
    "religion": "Katolik",
    "ideology": "Teokrasi"
  },
  {
    "name_en": "Guinea",
    "name_id": "Guinea",
    "lon": -11.060853680804716,
    "lat": 10.448272958512797,
    "flag": "🇬🇳",
    "pop": "247M",
    "budget": "Rp 3891 T",
    "religion": "Kristen",
    "ideology": "Teokrasi"
  },
  {
    "name_en": "Gambia",
    "name_id": "Gambia",
    "lon": -15.43187312507075,
    "lat": 13.475334412500278,
    "flag": "🇬🇲",
    "pop": "183M",
    "budget": "Rp 4327 T",
    "religion": "Kristen",
    "ideology": "Pancasila"
  },
  {
    "name_en": "Guinea Bissau",
    "name_id": "Guinea-Bissau",
    "lon": -15.110623891988222,
    "lat": 12.02270447902587,
    "flag": "🇬🇼",
    "pop": "1.5B",
    "budget": "Rp 3718 T",
    "religion": "Kristen",
    "ideology": "Pancasila"
  },
  {
    "name_en": "Equatorial Guinea",
    "name_id": "Guinea Ekuatorial",
    "lon": 10.366031310571554,
    "lat": 1.6458644272354879,
    "flag": "🇬🇶",
    "pop": "264M",
    "budget": "Rp 322 T",
    "religion": "Islam",
    "ideology": "Komunisme"
  },
  {
    "name_en": "Greece",
    "name_id": "Yunani",
    "lon": 22.563888190617075,
    "lat": 39.34174662237825,
    "flag": "🇬🇷",
    "pop": "121M",
    "budget": "Rp 1825 T",
    "religion": "Ortodoks",
    "ideology": "Demokrasi"
  },
  {
    "name_en": "Greenland",
    "name_id": "Greenland",
    "lon": -41.50018111432649,
    "lat": 74.77048769413562,
    "flag": "🇬🇱",
    "pop": "133M",
    "budget": "Rp 3972 T",
    "religion": "Islam",
    "ideology": "Otokrasi"
  },
  {
    "name_en": "Guatemala",
    "name_id": "Guatemala",
    "lon": -90.36945850600885,
    "lat": 15.699360539402399,
    "flag": "🇬🇹",
    "pop": "437M",
    "budget": "Rp 4536 T",
    "religion": "Islam",
    "ideology": "Komunisme"
  },
  {
    "name_en": "French Guiana",
    "name_id": "Guyana Prancis",
    "lon": -53.23850610465859,
    "lat": 3.9059336791597374,
    "flag": "🇬🇫",
    "pop": "1.5B",
    "budget": "Rp 3457 T",
    "religion": "Kristen",
    "ideology": "Sosiolisme"
  },
  {
    "name_en": "Guyana",
    "name_id": "Guyana",
    "lon": -58.971203123744004,
    "lat": 4.790225358669166,
    "flag": "🇬🇾",
    "pop": "193M",
    "budget": "Rp 4656 T",
    "religion": "Kristen",
    "ideology": "Otokrasi"
  },
  {
    "name_en": "Honduras",
    "name_id": "Honduras",
    "lon": -86.58996381210999,
    "lat": 14.82294706719618,
    "flag": "🇭🇳",
    "pop": "153M",
    "budget": "Rp 1620 T",
    "religion": "Katolik",
    "ideology": "Komunisme"
  },
  {
    "name_en": "Croatia",
    "name_id": "Kroasia",
    "lon": 16.56619110394413,
    "lat": 45.0162341027784,
    "flag": "🇭🇷",
    "pop": "59M",
    "budget": "Rp 3864 T",
    "religion": "Ortodoks",
    "ideology": "Otokrasi"
  },
  {
    "name_en": "Haiti",
    "name_id": "Haiti",
    "lon": -72.65801345517127,
    "lat": 18.90070095173092,
    "flag": "🇭🇹",
    "pop": "213M",
    "budget": "Rp 904 T",
    "religion": "Hindu",
    "ideology": "Teokrasi"
  },
  {
    "name_en": "Hungary",
    "name_id": "Hongaria",
    "lon": 19.3576285480236,
    "lat": 47.199951195081454,
    "flag": "🇭🇺",
    "pop": "55M",
    "budget": "Rp 2391 T",
    "religion": "Islam",
    "ideology": "Pancasila"
  },
  {
    "name_en": "Indonesia",
    "name_id": "Indonesia",
    "lon": 114.02268357685442,
    "lat": -0.25430151202627704,
    "flag": "🇮🇩",
    "pop": "1.2B",
    "budget": "Rp 3339 T",
    "religion": "Sekuler",
    "ideology": "Teokrasi"
  },
  {
    "name_en": "India",
    "name_id": "India",
    "lon": 79.59370366438492,
    "lat": 22.92500630007023,
    "flag": "🇮🇳",
    "pop": "189M",
    "budget": "Rp 4031 T",
    "religion": "Ortodoks",
    "ideology": "Sosiolisme"
  },
  {
    "name_en": "Ireland",
    "name_id": "Irlandia",
    "lon": -8.010236806541535,
    "lat": 53.18059108949022,
    "flag": "🇮🇪",
    "pop": "81M",
    "budget": "Rp 1902 T",
    "religion": "Katolik",
    "ideology": "Komunisme"
  },
  {
    "name_en": "Iran",
    "name_id": "Iran",
    "lon": 54.28545149299196,
    "lat": 32.518917306489946,
    "flag": "🇮🇷",
    "pop": "233M",
    "budget": "Rp 4684 T",
    "religion": "Katolik",
    "ideology": "Sosiolisme"
  },
  {
    "name_en": "Iraq",
    "name_id": "Irak",
    "lon": 43.756911464164496,
    "lat": 33.03682253689675,
    "flag": "🇮🇶",
    "pop": "1.1B",
    "budget": "Rp 470 T",
    "religion": "Hindu",
    "ideology": "Komunisme"
  },
  {
    "name_en": "Iceland",
    "name_id": "Islandia",
    "lon": -18.76102881712188,
    "lat": 65.07427634281467,
    "flag": "🇮🇸",
    "pop": "200M",
    "budget": "Rp 4617 T",
    "religion": "Kristen",
    "ideology": "Pancasila"
  },
  {
    "name_en": "Israel",
    "name_id": "Israel",
    "lon": 35.00384996267353,
    "lat": 31.484917756756627,
    "flag": "🇮🇱",
    "pop": "1.3B",
    "budget": "Rp 2183 T",
    "religion": "Katolik",
    "ideology": "Komunisme"
  },
  {
    "name_en": "Italy",
    "name_id": "Italia",
    "lon": 12.219476444106418,
    "lat": 43.47247599725516,
    "flag": "🇮🇹",
    "pop": "1.3B",
    "budget": "Rp 1742 T",
    "religion": "Katolik",
    "ideology": "Demokrasi"
  },
  {
    "name_en": "Jamaica",
    "name_id": "Jamaika",
    "lon": -77.32425474084792,
    "lat": 18.137635986094743,
    "flag": "🇯🇲",
    "pop": "1.1B",
    "budget": "Rp 3159 T",
    "religion": "Sekuler",
    "ideology": "Teokrasi"
  },
  {
    "name_en": "Jordan",
    "name_id": "Yordania",
    "lon": 36.77945498882163,
    "lat": 31.245490666265326,
    "flag": "🇯🇴",
    "pop": "255M",
    "budget": "Rp 557 T",
    "religion": "Sekuler",
    "ideology": "Sosiolisme"
  },
  {
    "name_en": "Japan",
    "name_id": "Jepang",
    "lon": 136.8819471500021,
    "lat": 36.019075302950796,
    "flag": "🇯🇵",
    "pop": "471M",
    "budget": "Rp 393 T",
    "religion": "Katolik",
    "ideology": "Demokrasi"
  },
  {
    "name_en": "Kazakhstan",
    "name_id": "Kazakhstan",
    "lon": 67.28460878718062,
    "lat": 48.191662125259384,
    "flag": "🇰🇿",
    "pop": "1.3B",
    "budget": "Rp 1963 T",
    "religion": "Kristen",
    "ideology": "Sosiolisme"
  },
  {
    "name_en": "Kenya",
    "name_id": "Kenya",
    "lon": 37.791555237645646,
    "lat": 0.5959662917718885,
    "flag": "🇰🇪",
    "pop": "1.3B",
    "budget": "Rp 4581 T",
    "religion": "Kristen",
    "ideology": "Demokrasi"
  },
  {
    "name_en": "Kyrgyzstan",
    "name_id": "Kirgizstan",
    "lon": 74.62040463206608,
    "lat": 41.50689357007641,
    "flag": "🇰🇬",
    "pop": "482M",
    "budget": "Rp 2285 T",
    "religion": "Hindu",
    "ideology": "Komunisme"
  },
  {
    "name_en": "Cambodia",
    "name_id": "Kamboja",
    "lon": 104.87608521320313,
    "lat": 12.684728701098136,
    "flag": "🇰🇭",
    "pop": "246M",
    "budget": "Rp 4494 T",
    "religion": "Katolik",
    "ideology": "Demokrasi"
  },
  {
    "name_en": "South Korea",
    "name_id": "Korea Selatan",
    "lon": 127.82131716621139,
    "lat": 36.42759872225762,
    "flag": "🇰🇷",
    "pop": "136M",
    "budget": "Rp 3716 T",
    "religion": "Kristen",
    "ideology": "Demokrasi"
  },
  {
    "name_en": "Kosovo",
    "name_id": "Kosovo",
    "lon": 20.89535249981239,
    "lat": 42.579364814804016,
    "flag": "🏳️",
    "pop": "181M",
    "budget": "Rp 1372 T",
    "religion": "Ortodoks",
    "ideology": "Sosiolisme"
  },
  {
    "name_en": "Kuwait",
    "name_id": "Kuwait",
    "lon": 47.60009862494719,
    "lat": 29.307266735296082,
    "flag": "🇰🇼",
    "pop": "299M",
    "budget": "Rp 3848 T",
    "religion": "Kristen",
    "ideology": "Demokrasi"
  },
  {
    "name_en": "Laos",
    "name_id": "Laos",
    "lon": 103.75025970028973,
    "lat": 18.444978189084043,
    "flag": "🇱🇦",
    "pop": "323M",
    "budget": "Rp 2584 T",
    "religion": "Sekuler",
    "ideology": "Pancasila"
  },
  {
    "name_en": "Lebanon",
    "name_id": "Lebanon",
    "lon": 35.870986399455646,
    "lat": 33.91182712116963,
    "flag": "🇱🇧",
    "pop": "1.4B",
    "budget": "Rp 2979 T",
    "religion": "Ortodoks",
    "ideology": "Teokrasi"
  },
  {
    "name_en": "Liberia",
    "name_id": "Liberia",
    "lon": -9.410836102614718,
    "lat": 6.431619946346842,
    "flag": "🇱🇷",
    "pop": "411M",
    "budget": "Rp 727 T",
    "religion": "Kristen",
    "ideology": "Pancasila"
  },
  {
    "name_en": "Libya",
    "name_id": "Libya",
    "lon": 17.974352720239526,
    "lat": 26.997460440963433,
    "flag": "🇱🇾",
    "pop": "28M",
    "budget": "Rp 2205 T",
    "religion": "Hindu",
    "ideology": "Komunisme"
  },
  {
    "name_en": "Sri Lanka",
    "name_id": "Sri Lanka",
    "lon": 80.66723578775134,
    "lat": 7.700534337706304,
    "flag": "🇱🇰",
    "pop": "1.2B",
    "budget": "Rp 4748 T",
    "religion": "Kristen",
    "ideology": "Komunisme"
  },
  {
    "name_en": "Lesotho",
    "name_id": "Lesotho",
    "lon": 28.170105291093066,
    "lat": -29.62529067781291,
    "flag": "🇱🇸",
    "pop": "1.2B",
    "budget": "Rp 4555 T",
    "religion": "Katolik",
    "ideology": "Sosiolisme"
  },
  {
    "name_en": "Lithuania",
    "name_id": "Lituania",
    "lon": 23.88064036129655,
    "lat": 55.284319424544655,
    "flag": "🇱🇹",
    "pop": "407M",
    "budget": "Rp 524 T",
    "religion": "Ortodoks",
    "ideology": "Otokrasi"
  },
  {
    "name_en": "Luxembourg",
    "name_id": "Luksemburg",
    "lon": 5.9652232417386335,
    "lat": 49.765705317313795,
    "flag": "🇱🇺",
    "pop": "1.5B",
    "budget": "Rp 1933 T",
    "religion": "Islam",
    "ideology": "Sosiolisme"
  },
  {
    "name_en": "Latvia",
    "name_id": "Latvia",
    "lon": 24.833295923942824,
    "lat": 56.80717516493818,
    "flag": "🇱🇻",
    "pop": "461M",
    "budget": "Rp 2767 T",
    "religion": "Ortodoks",
    "ideology": "Demokrasi"
  },
  {
    "name_en": "Morocco",
    "name_id": "Maroko",
    "lon": -8.420479718817836,
    "lat": 29.885394456203375,
    "flag": "🇲🇦",
    "pop": "212M",
    "budget": "Rp 3402 T",
    "religion": "Islam",
    "ideology": "Pancasila"
  },
  {
    "name_en": "Moldova",
    "name_id": "Moldova",
    "lon": 28.410482745436806,
    "lat": 47.20367646591266,
    "flag": "🇲🇩",
    "pop": "146M",
    "budget": "Rp 4255 T",
    "religion": "Sekuler",
    "ideology": "Pancasila"
  },
  {
    "name_en": "Madagascar",
    "name_id": "Madagaskar",
    "lon": 46.691170818879314,
    "lat": -19.356114029038597,
    "flag": "🇲🇬",
    "pop": "1.3B",
    "budget": "Rp 1636 T",
    "religion": "Sekuler",
    "ideology": "Demokrasi"
  },
  {
    "name_en": "Mexico",
    "name_id": "Meksiko",
    "lon": -102.57634951262834,
    "lat": 23.935371917330777,
    "flag": "🇲🇽",
    "pop": "1.1B",
    "budget": "Rp 3139 T",
    "religion": "Islam",
    "ideology": "Otokrasi"
  },
  {
    "name_en": "Macedonia",
    "name_id": "Makedonia Utara",
    "lon": 21.69789690466618,
    "lat": 41.60592902478061,
    "flag": "🇲🇰",
    "pop": "293M",
    "budget": "Rp 4376 T",
    "religion": "Sekuler",
    "ideology": "Teokrasi"
  },
  {
    "name_en": "Mali",
    "name_id": "Mali",
    "lon": -3.543294472195161,
    "lat": 17.26777221637535,
    "flag": "🇲🇱",
    "pop": "1.3B",
    "budget": "Rp 206 T",
    "religion": "Sekuler",
    "ideology": "Demokrasi"
  },
  {
    "name_en": "Malta",
    "name_id": "Malta",
    "lon": 14.443277809851045,
    "lat": 35.89002787883222,
    "flag": "🇲🇹",
    "pop": "1.2B",
    "budget": "Rp 4574 T",
    "religion": "Islam",
    "ideology": "Teokrasi"
  },
  {
    "name_en": "Myanmar",
    "name_id": "Myanmar",
    "lon": 96.5058409110094,
    "lat": 21.01699982503085,
    "flag": "🇲🇲",
    "pop": "64M",
    "budget": "Rp 840 T",
    "religion": "Katolik",
    "ideology": "Otokrasi"
  },
  {
    "name_en": "Montenegro",
    "name_id": "Montenegro",
    "lon": 19.286181019707147,
    "lat": 42.78903831354369,
    "flag": "🇲🇪",
    "pop": "220M",
    "budget": "Rp 3487 T",
    "religion": "Sekuler",
    "ideology": "Pancasila"
  },
  {
    "name_en": "Mongolia",
    "name_id": "Mongolia",
    "lon": 102.94640494589315,
    "lat": 46.823682495246196,
    "flag": "🇲🇳",
    "pop": "1.1B",
    "budget": "Rp 3792 T",
    "religion": "Hindu",
    "ideology": "Sosiolisme"
  },
  {
    "name_en": "Mozambique",
    "name_id": "Mozambik",
    "lon": 35.47261706364559,
    "lat": -17.23044664944241,
    "flag": "🇲🇿",
    "pop": "399M",
    "budget": "Rp 3074 T",
    "religion": "Katolik",
    "ideology": "Pancasila"
  },
  {
    "name_en": "Mauritania",
    "name_id": "Mauritania",
    "lon": -10.326397038820694,
    "lat": 20.20926721283943,
    "flag": "🇲🇷",
    "pop": "453M",
    "budget": "Rp 1617 T",
    "religion": "Islam",
    "ideology": "Otokrasi"
  },
  {
    "name_en": "Malawi",
    "name_id": "Malawi",
    "lon": 34.19360519275301,
    "lat": -13.172832818433916,
    "flag": "🇲🇼",
    "pop": "381M",
    "budget": "Rp 2036 T",
    "religion": "Kristen",
    "ideology": "Komunisme"
  },
  {
    "name_en": "Malaysia",
    "name_id": "Malaysia",
    "lon": 114.6755139684612,
    "lat": 3.548111800051258,
    "flag": "🇲🇾",
    "pop": "1.3B",
    "budget": "Rp 3768 T",
    "religion": "Islam",
    "ideology": "Pancasila"
  },
  {
    "name_en": "Namibia",
    "name_id": "Namibia",
    "lon": 17.156168162687646,
    "lat": -22.099776973240576,
    "flag": "🇳🇦",
    "pop": "462M",
    "budget": "Rp 2950 T",
    "religion": "Sekuler",
    "ideology": "Komunisme"
  },
  {
    "name_en": "New Caledonia",
    "name_id": "Kaledonia Baru",
    "lon": 165.5344740475062,
    "lat": -21.261357478271837,
    "flag": "🇳🇨",
    "pop": "222M",
    "budget": "Rp 1076 T",
    "religion": "Sekuler",
    "ideology": "Komunisme"
  },
  {
    "name_en": "Niger",
    "name_id": "Niger",
    "lon": 9.324429403544729,
    "lat": 17.345552361272084,
    "flag": "🇳🇪",
    "pop": "311M",
    "budget": "Rp 4982 T",
    "religion": "Hindu",
    "ideology": "Teokrasi"
  },
  {
    "name_en": "Nigeria",
    "name_id": "Nigeria",
    "lon": 7.995127765434096,
    "lat": 9.548318380847917,
    "flag": "🇳🇬",
    "pop": "410M",
    "budget": "Rp 1680 T",
    "religion": "Kristen",
    "ideology": "Otokrasi"
  },
  {
    "name_en": "Nicaragua",
    "name_id": "Nikaragua",
    "lon": -85.02031834631033,
    "lat": 12.848190416553432,
    "flag": "🇳🇮",
    "pop": "1.0B",
    "budget": "Rp 4137 T",
    "religion": "Hindu",
    "ideology": "Pancasila"
  },
  {
    "name_en": "Netherlands",
    "name_id": "Belanda",
    "lon": 5.512217257118115,
    "lat": 52.298700259566715,
    "flag": "🇳🇱",
    "pop": "1.5B",
    "budget": "Rp 2296 T",
    "religion": "Sekuler",
    "ideology": "Pancasila"
  },
  {
    "name_en": "Norway",
    "name_id": "Norwegia",
    "lon": 14.244779722394098,
    "lat": 64.53653011587959,
    "flag": "🇳🇴",
    "pop": "1.1B",
    "budget": "Rp 3693 T",
    "religion": "Katolik",
    "ideology": "Pancasila"
  },
  {
    "name_en": "Nepal",
    "name_id": "Nepal",
    "lon": 84.01317380021746,
    "lat": 28.23944004709283,
    "flag": "🇳🇵",
    "pop": "1.5B",
    "budget": "Rp 2026 T",
    "religion": "Hindu",
    "ideology": "Sosiolisme"
  },
  {
    "name_en": "New Zealand",
    "name_id": "Selandia Baru",
    "lon": 170.51301141318066,
    "lat": -43.98581762043853,
    "flag": "🇳🇿",
    "pop": "191M",
    "budget": "Rp 3820 T",
    "religion": "Katolik",
    "ideology": "Pancasila"
  },
  {
    "name_en": "Oman",
    "name_id": "Oman",
    "lon": 56.097598515635774,
    "lat": 20.58108028230327,
    "flag": "🇴🇲",
    "pop": "156M",
    "budget": "Rp 590 T",
    "religion": "Katolik",
    "ideology": "Teokrasi"
  },
  {
    "name_en": "Pakistan",
    "name_id": "Pakistan",
    "lon": 69.41399808627136,
    "lat": 29.973460042550556,
    "flag": "🇵🇰",
    "pop": "88M",
    "budget": "Rp 4163 T",
    "religion": "Katolik",
    "ideology": "Teokrasi"
  },
  {
    "name_en": "Panama",
    "name_id": "Panama",
    "lon": -80.10916482305028,
    "lat": 8.530019285800908,
    "flag": "🇵🇦",
    "pop": "467M",
    "budget": "Rp 3742 T",
    "religion": "Kristen",
    "ideology": "Sosiolisme"
  },
  {
    "name_en": "Peru",
    "name_id": "Peru",
    "lon": -74.39180587730092,
    "lat": -9.191562965945671,
    "flag": "🇵🇪",
    "pop": "99M",
    "budget": "Rp 356 T",
    "religion": "Hindu",
    "ideology": "Otokrasi"
  },
  {
    "name_en": "Philippines",
    "name_id": "Filipina",
    "lon": 121.5444424473767,
    "lat": 15.750944352886165,
    "flag": "🇵🇭",
    "pop": "446M",
    "budget": "Rp 4424 T",
    "religion": "Sekuler",
    "ideology": "Teokrasi"
  },
  {
    "name_en": "Papua New Guinea",
    "name_id": "Papua Nugini",
    "lon": 144.33121563888304,
    "lat": -6.645007185852296,
    "flag": "🇵🇬",
    "pop": "1.3B",
    "budget": "Rp 4245 T",
    "religion": "Islam",
    "ideology": "Pancasila"
  },
  {
    "name_en": "Poland",
    "name_id": "Polandia",
    "lon": 19.31101431086576,
    "lat": 52.148260305574276,
    "flag": "🇵🇱",
    "pop": "376M",
    "budget": "Rp 2742 T",
    "religion": "Kristen",
    "ideology": "Teokrasi"
  },
  {
    "name_en": "Puerto Rico",
    "name_id": "Puerto Riko",
    "lon": -66.47922257377436,
    "lat": 18.237224722054563,
    "flag": "🇵🇷",
    "pop": "454M",
    "budget": "Rp 2539 T",
    "religion": "Kristen",
    "ideology": "Komunisme"
  },
  {
    "name_en": "North Korea",
    "name_id": "Korea Utara",
    "lon": 127.16501682893407,
    "lat": 40.14302104546928,
    "flag": "🇰🇵",
    "pop": "1.1B",
    "budget": "Rp 407 T",
    "religion": "Katolik",
    "ideology": "Komunisme"
  },
  {
    "name_en": "Portugal",
    "name_id": "Portugal",
    "lon": -8.05576565398752,
    "lat": 39.63404967691413,
    "flag": "🇵🇹",
    "pop": "1.2B",
    "budget": "Rp 1022 T",
    "religion": "Sekuler",
    "ideology": "Sosiolisme"
  },
  {
    "name_en": "Paraguay",
    "name_id": "Paraguay",
    "lon": -58.38738769647536,
    "lat": -23.248042095447328,
    "flag": "🇵🇾",
    "pop": "398M",
    "budget": "Rp 1744 T",
    "religion": "Kristen",
    "ideology": "Sosiolisme"
  },
  {
    "name_en": "Qatar",
    "name_id": "Qatar",
    "lon": 51.18350260887132,
    "lat": 25.32185100975744,
    "flag": "🇶🇦",
    "pop": "1.1B",
    "budget": "Rp 2862 T",
    "religion": "Ortodoks",
    "ideology": "Pancasila"
  },
  {
    "name_en": "Romania",
    "name_id": "Rumania",
    "lon": 24.943252307608645,
    "lat": 45.85710098777519,
    "flag": "🇷🇴",
    "pop": "452M",
    "budget": "Rp 4131 T",
    "religion": "Sekuler",
    "ideology": "Pancasila"
  },
  {
    "name_en": "Russia",
    "name_id": "Rusia",
    "lon": 99.21652676048653,
    "lat": 61.69256469352855,
    "flag": "🇷🇺",
    "pop": "90M",
    "budget": "Rp 4595 T",
    "religion": "Islam",
    "ideology": "Demokrasi"
  },
  {
    "name_en": "Rwanda",
    "name_id": "Rwanda",
    "lon": 29.918965896965677,
    "lat": -2.01351556441697,
    "flag": "🇷🇼",
    "pop": "1.2B",
    "budget": "Rp 1098 T",
    "religion": "Sekuler",
    "ideology": "Pancasila"
  },
  {
    "name_en": "Western Sahara",
    "name_id": "Sahara Barat",
    "lon": -12.137831279237853,
    "lat": 24.29117284991382,
    "flag": "🇪🇭",
    "pop": "249M",
    "budget": "Rp 2652 T",
    "religion": "Kristen",
    "ideology": "Demokrasi"
  },
  {
    "name_en": "Saudi Arabia",
    "name_id": "Arab Saudi",
    "lon": 44.51636382661864,
    "lat": 24.12328979558363,
    "flag": "🇸🇦",
    "pop": "74M",
    "budget": "Rp 1768 T",
    "religion": "Kristen",
    "ideology": "Sosiolisme"
  },
  {
    "name_en": "Sudan",
    "name_id": "Sudan",
    "lon": 29.862604017208454,
    "lat": 15.99058495544573,
    "flag": "🇸🇩",
    "pop": "1.0B",
    "budget": "Rp 3194 T",
    "religion": "Hindu",
    "ideology": "Pancasila"
  },
  {
    "name_en": "South Sudan",
    "name_id": "Sudan Selatan",
    "lon": 30.198617471789227,
    "lat": 7.292889589795126,
    "flag": "🇸🇸",
    "pop": "38M",
    "budget": "Rp 2226 T",
    "religion": "Katolik",
    "ideology": "Demokrasi"
  },
  {
    "name_en": "Senegal",
    "name_id": "Senegal",
    "lon": -14.50980270579705,
    "lat": 14.354140014155806,
    "flag": "🇸🇳",
    "pop": "498M",
    "budget": "Rp 3990 T",
    "religion": "Ortodoks",
    "ideology": "Sosiolisme"
  },
  {
    "name_en": "Solomon Islands",
    "name_id": "Kepulauan Solomon",
    "lon": 159.10249838312578,
    "lat": -7.902107562654502,
    "flag": "🇸🇧",
    "pop": "211M",
    "budget": "Rp 1054 T",
    "religion": "Katolik",
    "ideology": "Pancasila"
  },
  {
    "name_en": "Sierra Leone",
    "name_id": "Sierra Leone",
    "lon": -11.795257379763953,
    "lat": 8.530353735589916,
    "flag": "🇸🇱",
    "pop": "337M",
    "budget": "Rp 3201 T",
    "religion": "Katolik",
    "ideology": "Pancasila"
  },
  {
    "name_en": "El Salvador",
    "name_id": "El Salvador",
    "lon": -88.87290324483844,
    "lat": 13.726091618589376,
    "flag": "🇸🇻",
    "pop": "1.2B",
    "budget": "Rp 4633 T",
    "religion": "Ortodoks",
    "ideology": "Sosiolisme"
  },
  {
    "name_en": "Somaliland",
    "name_id": "Somaliland",
    "lon": 46.23074785947254,
    "lat": 9.757970278633891,
    "flag": "🏳️",
    "pop": "310M",
    "budget": "Rp 2101 T",
    "religion": "Ortodoks",
    "ideology": "Sosiolisme"
  },
  {
    "name_en": "Somalia",
    "name_id": "Somalia",
    "lon": 45.72670072386591,
    "lat": 4.752347709937329,
    "flag": "🇸🇴",
    "pop": "466M",
    "budget": "Rp 1285 T",
    "religion": "Ortodoks",
    "ideology": "Teokrasi"
  },
  {
    "name_en": "Republic of Serbia",
    "name_id": "Serbia",
    "lon": 20.819651225489288,
    "lat": 44.23303717135303,
    "flag": "🇷🇸",
    "pop": "91M",
    "budget": "Rp 4143 T",
    "religion": "Kristen",
    "ideology": "Teokrasi"
  },
  {
    "name_en": "Suriname",
    "name_id": "Suriname",
    "lon": -55.91145636465013,
    "lat": 4.120007947741114,
    "flag": "🇸🇷",
    "pop": "21M",
    "budget": "Rp 4650 T",
    "religion": "Sekuler",
    "ideology": "Demokrasi"
  },
  {
    "name_en": "Slovakia",
    "name_id": "Slowakia",
    "lon": 19.507657094537745,
    "lat": 48.72671130750541,
    "flag": "🇸🇰",
    "pop": "178M",
    "budget": "Rp 301 T",
    "religion": "Kristen",
    "ideology": "Sosiolisme"
  },
  {
    "name_en": "Slovenia",
    "name_id": "Slovenia",
    "lon": 14.938152421437303,
    "lat": 46.125422102647065,
    "flag": "🇸🇮",
    "pop": "1.3B",
    "budget": "Rp 1756 T",
    "religion": "Ortodoks",
    "ideology": "Teokrasi"
  },
  {
    "name_en": "Sweden",
    "name_id": "Swedia",
    "lon": 16.59626587831342,
    "lat": 62.81148502345843,
    "flag": "🇸🇪",
    "pop": "318M",
    "budget": "Rp 4255 T",
    "religion": "Sekuler",
    "ideology": "Pancasila"
  },
  {
    "name_en": "Swaziland",
    "name_id": "Eswatini",
    "lon": 31.39525584460547,
    "lat": -26.48985518070372,
    "flag": "🇸🇿",
    "pop": "279M",
    "budget": "Rp 4156 T",
    "religion": "Sekuler",
    "ideology": "Pancasila"
  },
  {
    "name_en": "Syria",
    "name_id": "Suriah",
    "lon": 38.54423937337721,
    "lat": 35.01261407482943,
    "flag": "🇸🇾",
    "pop": "1.4B",
    "budget": "Rp 3939 T",
    "religion": "Katolik",
    "ideology": "Otokrasi"
  },
  {
    "name_en": "Chad",
    "name_id": "Chad",
    "lon": 18.58132957570229,
    "lat": 15.328867455033206,
    "flag": "🇹🇩",
    "pop": "217M",
    "budget": "Rp 4623 T",
    "religion": "Kristen",
    "ideology": "Sosiolisme"
  },
  {
    "name_en": "Togo",
    "name_id": "Togo",
    "lon": 0.9964041377430796,
    "lat": 8.439541614235031,
    "flag": "🇹🇬",
    "pop": "153M",
    "budget": "Rp 538 T",
    "religion": "Sekuler",
    "ideology": "Sosiolisme"
  },
  {
    "name_en": "Thailand",
    "name_id": "Thailand",
    "lon": 101.0061336130775,
    "lat": 15.016975159492564,
    "flag": "🇹🇭",
    "pop": "152M",
    "budget": "Rp 1098 T",
    "religion": "Katolik",
    "ideology": "Demokrasi"
  },
  {
    "name_en": "Tajikistan",
    "name_id": "Tajikistan",
    "lon": 71.03443536178722,
    "lat": 38.58308139503346,
    "flag": "🇹🇯",
    "pop": "449M",
    "budget": "Rp 2039 T",
    "religion": "Katolik",
    "ideology": "Pancasila"
  },
  {
    "name_en": "Turkmenistan",
    "name_id": "Turkmenistan",
    "lon": 59.275430450119,
    "lat": 39.09124009577987,
    "flag": "🇹🇲",
    "pop": "175M",
    "budget": "Rp 4231 T",
    "religion": "Islam",
    "ideology": "Pancasila"
  },
  {
    "name_en": "East Timor",
    "name_id": "Timor-Leste",
    "lon": 125.96629991037219,
    "lat": -8.767760366825122,
    "flag": "🇹🇱",
    "pop": "374M",
    "budget": "Rp 1557 T",
    "religion": "Islam",
    "ideology": "Sosiolisme"
  },
  {
    "name_en": "Trinidad and Tobago",
    "name_id": "Trinidad dan Tobago",
    "lon": -61.33036691444743,
    "lat": 10.428237089201463,
    "flag": "🇹🇹",
    "pop": "262M",
    "budget": "Rp 3153 T",
    "religion": "Kristen",
    "ideology": "Sosiolisme"
  },
  {
    "name_en": "Tunisia",
    "name_id": "Tunisia",
    "lon": 9.534716183500802,
    "lat": 34.17293925895331,
    "flag": "🇹🇳",
    "pop": "193M",
    "budget": "Rp 2609 T",
    "religion": "Sekuler",
    "ideology": "Demokrasi"
  },
  {
    "name_en": "Turkey",
    "name_id": "Turki",
    "lon": 35.39210233844099,
    "lat": 38.990729732518275,
    "flag": "🇹🇷",
    "pop": "423M",
    "budget": "Rp 4652 T",
    "religion": "Ortodoks",
    "ideology": "Sosiolisme"
  },
  {
    "name_en": "Taiwan",
    "name_id": "Taiwan",
    "lon": 120.97480073551196,
    "lat": 23.740964945370994,
    "flag": "🇹🇼",
    "pop": "422M",
    "budget": "Rp 3386 T",
    "religion": "Hindu",
    "ideology": "Teokrasi"
  },
  {
    "name_en": "United Republic of Tanzania",
    "name_id": "Tanzania",
    "lon": 34.75298812860288,
    "lat": -6.257732678257467,
    "flag": "🇹🇿",
    "pop": "1.2B",
    "budget": "Rp 4571 T",
    "religion": "Ortodoks",
    "ideology": "Teokrasi"
  },
  {
    "name_en": "Uganda",
    "name_id": "Uganda",
    "lon": 32.35754824335681,
    "lat": 1.2954870115966226,
    "flag": "🇺🇬",
    "pop": "126M",
    "budget": "Rp 2490 T",
    "religion": "Kristen",
    "ideology": "Teokrasi"
  },
  {
    "name_en": "Ukraine",
    "name_id": "Ukraina",
    "lon": 31.36953300795837,
    "lat": 48.97301785822512,
    "flag": "🇺🇦",
    "pop": "468M",
    "budget": "Rp 1120 T",
    "religion": "Hindu",
    "ideology": "Sosiolisme"
  },
  {
    "name_en": "Uruguay",
    "name_id": "Uruguay",
    "lon": -56.00327859834271,
    "lat": -32.780904514653685,
    "flag": "🇺🇾",
    "pop": "104M",
    "budget": "Rp 4703 T",
    "religion": "Sekuler",
    "ideology": "Teokrasi"
  },
  {
    "name_en": "United States of America",
    "name_id": "Amerika Serikat",
    "lon": -99.06024062067767,
    "lat": 39.50155412627149,
    "flag": "🇺🇸",
    "pop": "26M",
    "budget": "Rp 4931 T",
    "religion": "Islam",
    "ideology": "Pancasila"
  },
  {
    "name_en": "Uzbekistan",
    "name_id": "Uzbekistan",
    "lon": 63.20363970313532,
    "lat": 41.748602626152476,
    "flag": "🇺🇿",
    "pop": "192M",
    "budget": "Rp 4854 T",
    "religion": "Ortodoks",
    "ideology": "Komunisme"
  },
  {
    "name_en": "Venezuela",
    "name_id": "Venezuela",
    "lon": -66.16382729479615,
    "lat": 7.162132242283123,
    "flag": "🇻🇪",
    "pop": "51M",
    "budget": "Rp 535 T",
    "religion": "Katolik",
    "ideology": "Pancasila"
  },
  {
    "name_en": "Vietnam",
    "name_id": "Vietnam",
    "lon": 106.28584084813869,
    "lat": 16.657937717046437,
    "flag": "🇻🇳",
    "pop": "373M",
    "budget": "Rp 964 T",
    "religion": "Islam",
    "ideology": "Teokrasi"
  },
  {
    "name_en": "Vanuatu",
    "name_id": "Vanuatu",
    "lon": 166.9072292235316,
    "lat": -15.223343397456187,
    "flag": "🇻🇺",
    "pop": "33M",
    "budget": "Rp 1193 T",
    "religion": "Sekuler",
    "ideology": "Pancasila"
  },
  {
    "name_en": "West Bank",
    "name_id": "Tepi Barat",
    "lon": 35.27331963061388,
    "lat": 31.941136592976413,
    "flag": "🇵🇸",
    "pop": "413M",
    "budget": "Rp 2106 T",
    "religion": "Kristen",
    "ideology": "Teokrasi"
  },
  {
    "name_en": "Yemen",
    "name_id": "Yaman",
    "lon": 47.535044576933146,
    "lat": 15.91323186702399,
    "flag": "🇾🇪",
    "pop": "444M",
    "budget": "Rp 4915 T",
    "religion": "Sekuler",
    "ideology": "Pancasila"
  },
  {
    "name_en": "South Africa",
    "name_id": "Afrika Selatan",
    "lon": 25.117396260325854,
    "lat": -28.96210620692334,
    "flag": "🇿🇦",
    "pop": "23M",
    "budget": "Rp 3228 T",
    "religion": "Kristen",
    "ideology": "Komunisme"
  },
  {
    "name_en": "Zambia",
    "name_id": "Zambia",
    "lon": 27.7275918397033,
    "lat": -13.39506758615823,
    "flag": "🇿🇲",
    "pop": "1.1B",
    "budget": "Rp 4408 T",
    "religion": "Katolik",
    "ideology": "Komunisme"
  },
  {
    "name_en": "Zimbabwe",
    "name_id": "Zimbabwe",
    "lon": 29.78854831417208,
    "lat": -18.906987904330226,
    "flag": "🇿🇼",
    "pop": "497M",
    "budget": "Rp 3793 T",
    "religion": "Kristen",
    "ideology": "Sosiolisme"
  },
  {
    "name_en": "Antigua and Barbuda",
    "name_id": "Antigua dan Barbuda",
    "lon": -61.796,
    "lat": 17.06,
    "flag": "🇦🇬",
    "pop": "---",
    "budget": "---",
    "religion": "---",
    "ideology": "---"
  },
  {
    "name_en": "Bahrain",
    "name_id": "Bahrain",
    "lon": 50.55,
    "lat": 26.0,
    "flag": "🇧🇭",
    "pop": "---",
    "budget": "---",
    "religion": "---",
    "ideology": "---"
  },
  {
    "name_en": "Barbados",
    "name_id": "Barbados",
    "lon": -59.543,
    "lat": 13.193,
    "flag": "🇧🇧",
    "pop": "---",
    "budget": "---",
    "religion": "---",
    "ideology": "---"
  },
  {
    "name_en": "Dominica",
    "name_id": "Dominika",
    "lon": -61.333,
    "lat": 15.416,
    "flag": "🇩🇲",
    "pop": "---",
    "budget": "---",
    "religion": "---",
    "ideology": "---"
  },
  {
    "name_en": "Grenada",
    "name_id": "Grenada",
    "lon": -61.666,
    "lat": 12.116,
    "flag": "🇬🇩",
    "pop": "---",
    "budget": "---",
    "religion": "---",
    "ideology": "---"
  },
  {
    "name_en": "Kiribati",
    "name_id": "Kiribati",
    "lon": -168.734,
    "lat": -3.37,
    "flag": "🇰🇮",
    "pop": "---",
    "budget": "---",
    "religion": "---",
    "ideology": "---"
  },
  {
    "name_en": "Liechtenstein",
    "name_id": "Liechtenstein",
    "lon": 9.555,
    "lat": 47.166,
    "flag": "🇱🇮",
    "pop": "---",
    "budget": "---",
    "religion": "---",
    "ideology": "---"
  },
  {
    "name_en": "Marshall Islands",
    "name_id": "Kepulauan Marshall",
    "lon": 171.184,
    "lat": 7.131,
    "flag": "🇲🇭",
    "pop": "---",
    "budget": "---",
    "religion": "---",
    "ideology": "---"
  },
  {
    "name_en": "Micronesia",
    "name_id": "Mikronesia",
    "lon": 150.55,
    "lat": 7.425,
    "flag": "🇫🇲",
    "pop": "---",
    "budget": "---",
    "religion": "---",
    "ideology": "---"
  },
  {
    "name_en": "Monaco",
    "name_id": "Monako",
    "lon": 7.416,
    "lat": 43.733,
    "flag": "🇲🇨",
    "pop": "---",
    "budget": "---",
    "religion": "---",
    "ideology": "---"
  },
  {
    "name_en": "Nauru",
    "name_id": "Nauru",
    "lon": 166.931,
    "lat": -0.522,
    "flag": "🇳🇷",
    "pop": "---",
    "budget": "---",
    "religion": "---",
    "ideology": "---"
  },
  {
    "name_en": "Palestine",
    "name_id": "Palestina",
    "lon": 35.2,
    "lat": 31.9,
    "flag": "🇵🇸",
    "pop": "---",
    "budget": "---",
    "religion": "---",
    "ideology": "---"
  },
  {
    "name_en": "Saint Kitts and Nevis",
    "name_id": "Saint Kitts dan Nevis",
    "lon": -62.782,
    "lat": 17.357,
    "flag": "🇰🇳",
    "pop": "---",
    "budget": "---",
    "religion": "---",
    "ideology": "---"
  },
  {
    "name_en": "Saint Lucia",
    "name_id": "Saint Lucia",
    "lon": -60.978,
    "lat": 13.909,
    "flag": "🇱🇨",
    "pop": "---",
    "budget": "---",
    "religion": "---",
    "ideology": "---"
  },
  {
    "name_en": "Saint Vincent and the Grenadines",
    "name_id": "Saint Vincent dan Grenadines",
    "lon": -61.2,
    "lat": 13.25,
    "flag": "🇻🇨",
    "pop": "---",
    "budget": "---",
    "religion": "---",
    "ideology": "---"
  },
  {
    "name_en": "Sao Tome and Principe",
    "name_id": "Sao Tome dan Principe",
    "lon": 6.613,
    "lat": 0.186,
    "flag": "🇸🇹",
    "pop": "---",
    "budget": "---",
    "religion": "---",
    "ideology": "---"
  },
  {
    "name_en": "Seychelles",
    "name_id": "Seychelles",
    "lon": 55.491,
    "lat": -4.679,
    "flag": "🇸🇨",
    "pop": "---",
    "budget": "---",
    "religion": "---",
    "ideology": "---"
  }
]